[
    {
        "name": "北京协和医院",
        "lng": 116.417,
        "lat": 39.909,
        "type": "三甲",
        "address": "北京市东城区帅府园一号"
    },
    {
        "name": "北京大学第一医院",
        "lng": 116.367,
        "lat": 39.927,
        "type": "三甲",
        "address": "北京市西城区西什库大街8号"
    },
    {
        "name": "北京大学人民医院",
        "lng": 116.361,
        "lat": 39.883,
        "type": "三甲",
        "address": "北京市西城区北礼士路42号"
    },
    {
        "name": "北京天坛医院",
        "lng": 116.407,
        "lat": 39.882,
        "type": "三甲",
        "address": "北京市丰台区南四环西路119号"
    },
    {
        "name": "北京安贞医院",
        "lng": 116.401,
        "lat": 39.974,
        "type": "三甲",
        "address": "北京市朝阳区安贞路2号"
    },
    {
        "name": "北京朝阳医院",
        "lng": 116.435,
        "lat": 39.928,
        "type": "三甲",
        "address": "北京市朝阳区工体南路8号"
    },
    {
        "name": "北京积水潭医院",
        "lng": 116.373,
        "lat": 39.954,
        "type": "三甲",
        "address": "北京市西城区新街口东街31号"
    },
    {
        "name": "北京儿童医院",
        "lng": 116.355,
        "lat": 39.907,
        "type": "三甲",
        "address": "北京市西城区南礼士路56号"
    },
    {
        "name": "北京妇产医院",
        "lng": 116.417,
        "lat": 39.928,
        "type": "三甲",
        "address": "北京市东城区北池子大街骑河楼17号"
    },
    {
        "name": "北京口腔医院",
        "lng": 116.403,
        "lat": 39.894,
        "type": "三甲",
        "address": "北京市东城区天坛西里4号"
    },
    {
        "name": "北京大学第三医院",
        "lng": 116.365,
        "lat": 39.992,
        "type": "三甲",
        "address": "北京市海淀区花园北路49号"
    },
    {
        "name": "北京同仁医院",
        "lng": 116.414,
        "lat": 39.904,
        "type": "三甲",
        "address": "北京市东城区东交民巷1号"
    },
    {
        "name": "北京友谊医院",
        "lng": 116.405,
        "lat": 39.878,
        "type": "三甲",
        "address": "北京市西城区永安路95号"
    },
    {
        "name": "北京宣武医院",
        "lng": 116.363,
        "lat": 39.892,
        "type": "三甲",
        "address": "北京市西城区长椿街45号"
    },
    {
        "name": "北京中医医院",
        "lng": 116.417,
        "lat": 39.935,
        "type": "三甲",
        "address": "北京市东城区美术馆后街23号"
    },
    {
        "name": "北京肿瘤医院",
        "lng": 116.310,
        "lat": 39.931,
        "type": "三甲",
        "address": "北京市海淀区阜成路52号"
    },
    {
        "name": "北京阜外医院",
        "lng": 116.352,
        "lat": 39.932,
        "type": "三甲",
        "address": "北京市西城区北礼士路167号"
    },
    {
        "name": "北京佑安医院",
        "lng": 116.360,
        "lat": 39.868,
        "type": "三甲",
        "address": "北京市丰台区右安门外西头条8号"
    },
    {
        "name": "北京地坛医院",
        "lng": 116.467,
        "lat": 39.983,
        "type": "三甲",
        "address": "北京市朝阳区京顺东街8号"
    },
    {
        "name": "北京世纪坛医院",
        "lng": 116.327,
        "lat": 39.909,
        "type": "三甲",
        "address": "北京市海淀区羊坊店铁医路10号"
    },
    {
        "name": "北京清华长庚医院",
        "lng": 116.350,
        "lat": 40.083,
        "type": "三甲",
        "address": "北京市昌平区立汤路168号"
    },
    {
        "name": "解放军总医院（301医院）",
        "lng": 116.333,
        "lat": 39.917,
        "type": "三甲",
        "address": "北京市海淀区复兴路28号"
    },
    {
        "name": "解放军总医院第一医学中心",
        "lng": 116.333,
        "lat": 39.917,
        "type": "三甲",
        "address": "北京市海淀区复兴路28号"
    },
    {
        "name": "解放军总医院第四医学中心",
        "lng": 116.423,
        "lat": 39.967,
        "type": "三甲",
        "address": "北京市海淀区阜成路51号"
    },
    {
        "name": "解放军总医院第八医学中心",
        "lng": 116.283,
        "lat": 39.967,
        "type": "三甲",
        "address": "北京市海淀区黑山扈路17号"
    },
    {
        "name": "空军特色医学中心",
        "lng": 116.367,
        "lat": 39.967,
        "type": "三甲",
        "address": "北京市海淀区阜成路30号"
    },
    {
        "name": "海军总医院",
        "lng": 116.367,
        "lat": 39.933,
        "type": "三甲",
        "address": "北京市海淀区阜成路6号"
    },
    {
        "name": "武警总医院",
        "lng": 116.300,
        "lat": 39.917,
        "type": "三甲",
        "address": "北京市海淀区永定路69号"
    },
    {
        "name": "中日友好医院",
        "lng": 116.417,
        "lat": 39.983,
        "type": "三甲",
        "address": "北京市朝阳区樱花园东街2号"
    },
    {
        "name": "中国医学科学院肿瘤医院",
        "lng": 116.467,
        "lat": 39.917,
        "type": "三甲",
        "address": "北京市朝阳区潘家园南里17号"
    },
    {
        "name": "中国中医科学院广安门医院",
        "lng": 116.350,
        "lat": 39.892,
        "type": "三甲",
        "address": "北京市西城区北线阁5号"
    },
    {
        "name": "中国中医科学院西苑医院",
        "lng": 116.300,
        "lat": 39.992,
        "type": "三甲",
        "address": "北京市海淀区西苑操场1号"
    },
    {
        "name": "北京中医药大学东直门医院",
        "lng": 116.433,
        "lat": 39.950,
        "type": "三甲",
        "address": "北京市东城区海运仓5号"
    },
    {
        "name": "首都医科大学宣武医院",
        "lng": 116.363,
        "lat": 39.892,
        "type": "三甲",
        "address": "北京市西城区长椿街45号"
    },
    {
        "name": "首都医科大学附属北京同仁医院",
        "lng": 116.414,
        "lat": 39.904,
        "type": "三甲",
        "address": "北京市东城区东交民巷1号"
    },
    {
        "name": "首都医科大学附属北京天坛医院",
        "lng": 116.407,
        "lat": 39.882,
        "type": "三甲",
        "address": "北京市丰台区南四环西路119号"
    },
    {
        "name": "首都医科大学附属北京安贞医院",
        "lng": 116.401,
        "lat": 39.974,
        "type": "三甲",
        "address": "北京市朝阳区安贞路2号"
    },
    {
        "name": "首都儿科研究所附属儿童医院",
        "lng": 116.450,
        "lat": 39.933,
        "type": "三甲",
        "address": "北京市朝阳区雅宝路2号"
    },
    {
        "name": "北京回龙观医院",
        "lng": 116.350,
        "lat": 40.083,
        "type": "三甲",
        "address": "北京市昌平区回龙观镇"
    },
    {
        "name": "北京安定医院",
        "lng": 116.383,
        "lat": 39.950,
        "type": "三甲",
        "address": "北京市西城区德胜门外安康胡同5号"
    },
    {
        "name": "北京老年医院",
        "lng": 116.233,
        "lat": 40.067,
        "type": "三甲",
        "address": "北京市海淀区温泉路118号"
    },
    {
        "name": "北京小汤山医院",
        "lng": 116.400,
        "lat": 40.183,
        "type": "三甲",
        "address": "北京市昌平区小汤山镇"
    },
    {
        "name": "北京胸科医院",
        "lng": 116.667,
        "lat": 39.917,
        "type": "三甲",
        "address": "北京市通州区北关大街9号"
    },
    {
        "name": "北京急救中心",
        "lng": 116.400,
        "lat": 39.892,
        "type": "三甲",
        "address": "北京市西城区前门西大街103号"
    },
    {
        "name": "北京航天总医院",
        "lng": 116.433,
        "lat": 39.817,
        "type": "三甲",
        "address": "北京市丰台区万源北路7号"
    },
    {
        "name": "北京航空总医院",
        "lng": 116.417,
        "lat": 39.983,
        "type": "三甲",
        "address": "北京市朝阳区安外北苑路3号"
    },
    {
        "name": "北京电力医院",
        "lng": 116.333,
        "lat": 39.883,
        "type": "三甲",
        "address": "北京市丰台区太平桥西里甲1号"
    },
    {
        "name": "北京煤炭总医院",
        "lng": 116.433,
        "lat": 39.967,
        "type": "三甲",
        "address": "北京市朝阳区西坝河南里29号"
    },
    {
        "name": "北京首钢医院",
        "lng": 116.200,
        "lat": 39.933,
        "type": "三甲",
        "address": "北京市石景山区晋元庄路9号"
    },
    {
        "name": "北京燕化医院",
        "lng": 116.067,
        "lat": 39.733,
        "type": "三甲",
        "address": "北京市房山区燕山迎风街15号"
    },
    {
        "name": "北京大学口腔医院",
        "lng": 116.383,
        "lat": 39.967,
        "type": "三甲",
        "address": "北京市海淀区中关村南大街22号"
    },
    {
        "name": "北京大学第六医院",
        "lng": 116.367,
        "lat": 39.992,
        "type": "三甲",
        "address": "北京市海淀区花园北路51号"
    },
    {
        "name": "北京大学首钢医院",
        "lng": 116.200,
        "lat": 39.933,
        "type": "三甲",
        "address": "北京市石景山区晋元庄路9号"
    },
    {
        "name": "北京大学国际医院",
        "lng": 116.300,
        "lat": 40.100,
        "type": "三甲",
        "address": "北京市昌平区中关村生命科学园生命园路1号"
    },
    {
        "name": "清华大学玉泉医院",
        "lng": 116.267,
        "lat": 39.917,
        "type": "三甲",
        "address": "北京市石景山区石景山路5号"
    },
    {
        "name": "北京和睦家医院",
        "lng": 116.467,
        "lat": 39.950,
        "type": "三甲",
        "address": "北京市朝阳区将台西路9-11号"
    },
    {
        "name": "北京美中宜和妇儿医院",
        "lng": 116.500,
        "lat": 39.983,
        "type": "三级",
        "address": "北京市朝阳区望京街9号"
    },
    {
        "name": "北京维尔口腔医院",
        "lng": 116.467,
        "lat": 39.917,
        "type": "三级",
        "address": "北京市朝阳区东三环北路甲2号"
    },
    {
        "name": "北京民众眼科医院",
        "lng": 116.433,
        "lat": 39.867,
        "type": "三级",
        "address": "北京市朝阳区潘家园南里12号"
    },
    {
        "name": "北京华信医院",
        "lng": 116.333,
        "lat": 39.950,
        "type": "三甲",
        "address": "北京市朝阳区酒仙桥一街坊6号"
    },
    {
        "name": "北京博爱医院",
        "lng": 116.350,
        "lat": 39.867,
        "type": "三甲",
        "address": "北京市丰台区角门北路10号"
    },
    {
        "name": "北京藏医院",
        "lng": 116.417,
        "lat": 39.983,
        "type": "三级",
        "address": "北京市朝阳区小关北里218号"
    },
    {
        "name": "北京按摩医院",
        "lng": 116.383,
        "lat": 39.917,
        "type": "三级",
        "address": "北京市西城区宝产胡同7号"
    },
    {
        "name": "北京中医药大学第三附属医院",
        "lng": 116.367,
        "lat": 39.967,
        "type": "三甲",
        "address": "北京市朝阳区安定门外小关街51号"
    },
    {
        "name": "北京中医药大学东方医院",
        "lng": 116.400,
        "lat": 39.867,
        "type": "三甲",
        "address": "北京市丰台区方庄芳星园一区6号"
    },
    {
        "name": "首都医科大学三博脑科医院",
        "lng": 116.300,
        "lat": 39.933,
        "type": "三级",
        "address": "北京市海淀区香山一棵松50号"
    },
    {
        "name": "北京明德医院",
        "lng": 116.467,
        "lat": 39.983,
        "type": "三级",
        "address": "北京市朝阳区酒仙桥北路9号"
    },
    {
        "name": "北京玛丽妇婴医院",
        "lng": 116.467,
        "lat": 39.967,
        "type": "三级",
        "address": "北京市朝阳区和平里北街5号"
    },
    {
        "name": "北京五洲妇儿医院",
        "lng": 116.467,
        "lat": 39.983,
        "type": "三级",
        "address": "北京市朝阳区北苑路168号"
    },
    {
        "name": "北京爱尔英智眼科医院",
        "lng": 116.500,
        "lat": 39.917,
        "type": "三级",
        "address": "北京市朝阳区潘家园南里12号"
    },
    {
        "name": "北京华厦眼科医院",
        "lng": 116.433,
        "lat": 39.867,
        "type": "三级",
        "address": "北京市朝阳区东三环南路54号"
    },
    {
        "name": "北京圣马克医院",
        "lng": 116.500,
        "lat": 39.983,
        "type": "三级",
        "address": "北京市朝阳区东四环北路6号"
    },
    {
        "name": "北京王府医院",
        "lng": 116.433,
        "lat": 40.067,
        "type": "三甲",
        "address": "北京市昌平区北七家镇王府街1号"
    },
    {
        "name": "北京京煤集团总医院",
        "lng": 116.100,
        "lat": 39.900,
        "type": "三甲",
        "address": "北京市门头沟区黑山大街18号"
    },
    {
        "name": "北京潞河医院",
        "lng": 116.667,
        "lat": 39.917,
        "type": "三甲",
        "address": "北京市通州区新华南路82号"
    },
    {
        "name": "北京大兴区人民医院",
        "lng": 116.333,
        "lat": 39.733,
        "type": "三甲",
        "address": "北京市大兴区黄村西大街26号"
    },
    {
        "name": "北京顺义区医院",
        "lng": 116.667,
        "lat": 40.133,
        "type": "三甲",
        "address": "北京市顺义区光明南街3号"
    },
    {
        "name": "北京昌平区医院",
        "lng": 116.233,
        "lat": 40.217,
        "type": "三甲",
        "address": "北京市昌平区鼓楼北街9号"
    },
    {
        "name": "北京平谷区医院",
        "lng": 117.100,
        "lat": 40.150,
        "type": "三甲",
        "address": "北京市平谷区新平北路59号"
    },
    {
        "name": "北京怀柔医院",
        "lng": 116.633,
        "lat": 40.317,
        "type": "三甲",
        "address": "北京市怀柔区永泰北街9号"
    },
    {
        "name": "北京密云区医院",
        "lng": 116.867,
        "lat": 40.367,
        "type": "三甲",
        "address": "北京市密云区鼓楼北大街3号"
    },
    {
        "name": "北京延庆区医院",
        "lng": 115.967,
        "lat": 40.450,
        "type": "三甲",
        "address": "北京市延庆区东顺城街28号"
    },
    {
        "name": "北京房山区第一医院",
        "lng": 116.133,
        "lat": 39.700,
        "type": "三甲",
        "address": "北京市房山区城关镇房窑路6号"
    },
    {
        "name": "北京通州区妇幼保健院",
        "lng": 116.667,
        "lat": 39.917,
        "type": "三甲",
        "address": "北京市通州区玉带河东街287号"
    },
    {
        "name": "北京海淀区妇幼保健院",
        "lng": 116.317,
        "lat": 39.983,
        "type": "三甲",
        "address": "北京市海淀区海淀南路33号"
    },
    {
        "name": "北京朝阳区妇幼保健院",
        "lng": 116.467,
        "lat": 39.933,
        "type": "三甲",
        "address": "北京市朝阳区华威里25号"
    },
    {
        "name": "北京西城区妇幼保健院",
        "lng": 116.383,
        "lat": 39.900,
        "type": "三甲",
        "address": "北京市西城区平原里小区21号楼"
    },
    {
        "name": "北京东城区妇幼保健院",
        "lng": 116.417,
        "lat": 39.933,
        "type": "三甲",
        "address": "北京市东城区法华南里25号"
    },
    {
        "name": "北京石景山区妇幼保健院",
        "lng": 116.200,
        "lat": 39.917,
        "type": "三甲",
        "address": "北京市石景山区依翠园5号"
    },
    {
        "name": "北京丰台区妇幼保健院",
        "lng": 116.300,
        "lat": 39.867,
        "type": "三甲",
        "address": "北京市丰台区马家堡嘉园二里14号"
    },
    {
        "name": "北京门头沟区妇幼保健院",
        "lng": 116.100,
        "lat": 39.933,
        "type": "三甲",
        "address": "北京市门头沟区新桥南大街9号"
    },
    {
        "name": "北京大兴区妇幼保健院",
        "lng": 116.333,
        "lat": 39.733,
        "type": "三甲",
        "address": "北京市大兴区黄村镇兴丰北大街(二段)56号"
    },
    {
        "name": "北京昌平区妇幼保健院",
        "lng": 116.233,
        "lat": 40.217,
        "type": "三甲",
        "address": "北京市昌平区北环路"
    },
    {
        "name": "北京顺义区妇幼保健院",
        "lng": 116.667,
        "lat": 40.133,
        "type": "三甲",
        "address": "北京市顺义区顺康路1号"
    },
    {
        "name": "北京通州区中医医院",
        "lng": 116.667,
        "lat": 39.917,
        "type": "三甲",
        "address": "北京市通州区车站路89号"
    },
    {
        "name": "北京海淀区中医医院",
        "lng": 116.300,
        "lat": 39.967,
        "type": "三甲",
        "address": "北京市海淀区双榆树西里12号"
    },
    {
        "name": "北京朝阳区中医医院",
        "lng": 116.467,
        "lat": 39.933,
        "type": "三甲",
        "address": "北京市朝阳区工体南路6号"
    },
    {
        "name": "北京西城区中医医院",
        "lng": 116.383,
        "lat": 39.900,
        "type": "三甲",
        "address": "北京市西城区棉花胡同83号"
    },
    {
        "name": "北京东城区中医医院",
        "lng": 116.417,
        "lat": 39.933,
        "type": "三甲",
        "address": "北京市东城区海运仓胡同5号"
    }
]